{"type":"FeatureCollection","features":[{"type":"Feature","id":5,"geometry":{"type":"Point","coordinates":[-90.303067999999939,15.478249000000062]},"properties":{"FID":5,"Name":"Hidroeléctrica Renace","FolderPath":"Hidroeléctricas en Guatemala/Capa sin nombre","SymbolID":0,"AltMode":-1,"Base":0,"Snippet":" ","PopupInfo":"Río: Cahabón\u003cbr\u003ePotencia: 60 MW\u003cbr\u003eEntidad: Recursos Naturales y Celulosas, RENACE S.A.","HasLabel":-1,"LabelID":0}},{"type":"Feature","id":7,"geometry":{"type":"Point","coordinates":[-90.098728999999935,15.286995000000047]},"properties":{"FID":7,"Name":"Hidroeléctrica Santa Teresa","FolderPath":"Hidroeléctricas en Guatemala/Capa sin nombre","SymbolID":0,"AltMode":-1,"Base":0,"Snippet":" ","PopupInfo":"Río: PolochicPotencia:24.0 MW\u003cbr\u003eEntidad: Agro-Comercializadora del Polochic S.A.","HasLabel":-1,"LabelID":0}},{"type":"Feature","id":17,"geometry":{"type":"Point","coordinates":[-89.798855999999944,15.403459000000055]},"properties":{"FID":17,"Name":"Hidroeléctrica Cholomá","FolderPath":"Hidroeléctricas en Guatemala/Capa sin nombre","SymbolID":0,"AltMode":-1,"Base":0,"Snippet":" ","PopupInfo":"Ríos: Cholomá,Quebrada,Secampana, Secampanita, Las Golondrinas, CaquipecjaPotencia: 10 MW\u003cbr\u003eEntidad: Hidroeléctrica Cholomá S.A.","HasLabel":-1,"LabelID":0}},{"type":"Feature","id":20,"geometry":{"type":"Point","coordinates":[-90.30392599999999,15.472789000000034]},"properties":{"FID":20,"Name":"Hidroeléctrica  Renace II","FolderPath":"Hidroeléctricas en Guatemala/Capa sin nombre","SymbolID":0,"AltMode":-1,"Base":0,"Snippet":" ","PopupInfo":"Río: CahabónPotencia: 130 MW\u003cbr\u003eEntidad: Recursos Naturales y Celulosas RENACE S.A.","HasLabel":-1,"LabelID":0}},{"type":"Feature","id":23,"geometry":{"type":"Point","coordinates":[-90.206422999999972,15.221003000000053]},"properties":{"FID":23,"Name":"Hidroeléctrica Sulin","FolderPath":"Hidroeléctricas en Guatemala/Capa sin nombre","SymbolID":0,"AltMode":-1,"Base":0,"Snippet":" ","PopupInfo":"Ríos: Sulin, Colorado, Cafetal, Panimá\u003cbr\u003ePotencia: 19 MW\u003cbr\u003eEntidad: Central Hidroeléctrica Sulín S.A.","HasLabel":-1,"LabelID":0}},{"type":"Feature","id":27,"geometry":{"type":"Point","coordinates":[-89.812545999999941,15.516544000000067]},"properties":{"FID":27,"Name":"Hidroeléctrica El Volcan","FolderPath":"Hidroeléctricas en Guatemala/Capa sin nombre","SymbolID":0,"AltMode":-1,"Base":0,"Snippet":" ","PopupInfo":"Río: Chiacté\u003cbr\u003ePotencia:26.0 MW\u003cbr\u003eEntidad: Generación Limpia Guatemala S.A.","HasLabel":-1,"LabelID":0}},{"type":"Feature","id":32,"geometry":{"type":"Point","coordinates":[-89.977597999999944,15.561818000000073]},"properties":{"FID":32,"Name":"Hidroeléctrica Entre Ríos","FolderPath":"Hidroeléctricas en Guatemala/Capa sin nombre","SymbolID":0,"AltMode":-1,"Base":0,"Snippet":" ","PopupInfo":"Ríos :Lanquin y Chianay\u003cbr\u003ePotencia:8.3 MW\u003cbr\u003eEntidad: Corrientes del Río S.A.","HasLabel":-1,"LabelID":0}},{"type":"Feature","id":45,"geometry":{"type":"Point","coordinates":[-89.700278999999966,15.41727700000007]},"properties":{"FID":45,"Name":"Hidroeléctrica Cahabón 10","FolderPath":"Hidroeléctricas en Guatemala/Capa sin nombre","SymbolID":0,"AltMode":-1,"Base":0,"Snippet":" ","PopupInfo":"Río: Cahabón\u003cbr\u003ePotencia: 62.8\u003cbr\u003eEntidad: Generación Limpia Guatemala S.A","HasLabel":-1,"LabelID":0}}]}